{
  "source": "taiwan_attractions_22_counties_grouped.json",
  "target_total": 200,
  "actual_total": 200,
  "county_count": 22,
  "items": [
    {
      "id": "C1_376570000A_000069",
      "name": "情人湖公園",
      "county": "基隆市",
      "area": "安樂區",
      "address": "基隆市安樂區基金一路208巷附近",
      "lat": 25.15696,
      "lng": 121.7059,
      "open_time": "開放式空間，無時間限制",
      "tel": "886-2-24287664",
      "website": ""
    },
    {
      "id": "C1_376420000A_000253",
      "name": "石牌縣界公園",
      "county": "新北市",
      "area": "坪林區",
      "address": "宜蘭縣261頭城鎮北宜公路56.5km處",
      "lat": 24.86511,
      "lng": 121.7753,
      "open_time": "全年開放",
      "tel": "886-3-9312152",
      "website": ""
    },
    {
      "id": "C1_379000000A_000001",
      "name": "大稻埕碼頭_大稻埕碼頭貨櫃市集",
      "county": "臺北市",
      "area": "大同區",
      "address": "",
      "lat": 25.0564,
      "lng": 121.50761,
      "open_time": "平常日以團體預約包船為主，例假日行駛固定航次，請洽詢各船公司。強烈季風、漲退潮水位差影響航行及靠泊安全，當日實際航班得由現場公告或網站預告調整。",
      "tel": "886-2-66057338",
      "website": ""
    },
    {
      "id": "C1_313020000G_000026",
      "name": "宏亞食品巧克力觀光工廠",
      "county": "桃園市",
      "area": "八德區",
      "address": "桃園縣八德市建國路386號",
      "lat": 24.943325,
      "lng": 121.297187,
      "open_time": "",
      "tel": "886-3-3656555",
      "website": ""
    },
    {
      "id": "C1_376580000A_000001",
      "name": "新竹州廳(新竹市政府)",
      "county": "新竹市",
      "area": "北區",
      "address": "新竹市中正路120號",
      "lat": 24.806701,
      "lng": 120.968635,
      "open_time": "一~五8:00~12:00，13:00~17:00",
      "tel": "886-3-5216121",
      "website": ""
    },
    {
      "id": "C1_376440000A_000043",
      "name": "水牛學校",
      "county": "新竹縣",
      "area": "關西鎮",
      "address": "新竹縣關西鎮大東坑11鄰1號",
      "lat": 24.8247,
      "lng": 121.12,
      "open_time": "（課程時間內容請洽李春信）",
      "tel": "886-9-26939186",
      "website": null
    },
    {
      "id": "C1_376450000A_000017",
      "name": "后厝龍鳳宮",
      "county": "苗栗縣",
      "area": "竹南鎮",
      "address": "苗栗縣竹南鎮龍安街69號",
      "lat": 24.69365,
      "lng": 120.86648,
      "open_time": "每日開放",
      "tel": "886-37-464620",
      "website": ""
    },
    {
      "id": "C1_376470000A_000054",
      "name": "梅庄花卉生產休憩園區",
      "county": "臺中市",
      "area": "烏日區",
      "address": "彰化縣芬園鄉溪尾村慶光路12-16號",
      "lat": 24.029291,
      "lng": 120.643561,
      "open_time": "08:00-18:00",
      "tel": "886-49-2524899",
      "website": "https://goo.gl/2Imao4"
    },
    {
      "id": "C1_376470000A_000001",
      "name": "田尾公路花園",
      "county": "彰化縣",
      "area": "田尾鄉",
      "address": "彰化縣田尾鄉民族路一段156號",
      "lat": 23.895978,
      "lng": 120.531752,
      "open_time": "08:00-18:00",
      "tel": "886-4-8832626",
      "website": ""
    },
    {
      "id": "C1_376470000A_000227",
      "name": "坑內坑森林步道",
      "county": "南投縣",
      "area": "名間鄉",
      "address": "彰化縣二水鄉坑內坑",
      "lat": 23.832551,
      "lng": 120.629819,
      "open_time": "全天開放",
      "tel": "886-4-8790100",
      "website": ""
    },
    {
      "id": "C1_376490000A_000001",
      "name": "雲林布袋戲館",
      "county": "雲林縣",
      "area": "虎尾鎮",
      "address": "雲林縣虎尾鎮林森路一段498號",
      "lat": 23.70928,
      "lng": 120.4334,
      "open_time": "10:00-18:00一二公休，其餘依臉書公告而定",
      "tel": "886-5-6313080",
      "website": ""
    },
    {
      "id": "C1_376600000A_000001",
      "name": "福康安紀功碑",
      "county": "嘉義市",
      "area": "東區",
      "address": "嘉義市東區嘉義公園內",
      "lat": 23.4834,
      "lng": 120.46399,
      "open_time": "星期日 24 小時營業；星期一 24 小時營業；星期二 24 小時營業；星期三 24 小時營業；星期四 24 小時營業；星期五 24 小時營業；星期六 24 小時營業",
      "tel": "886-5-2294593",
      "website": ""
    },
    {
      "id": "C1_376490000A_000239",
      "name": "北港觀光大橋",
      "county": "嘉義縣",
      "area": "六腳鄉",
      "address": "雲林縣北港鎮中山南路底",
      "lat": 23.56205,
      "lng": 120.3036,
      "open_time": "24HR",
      "tel": "886-5-7837427",
      "website": ""
    },
    {
      "id": "C1_395000000A_000971",
      "name": "麻豆林家四房厝",
      "county": "臺南市",
      "area": "麻豆區",
      "address": "臺南市721麻豆區和平路20號",
      "lat": 23.17971,
      "lng": 120.24496,
      "open_time": "現為私宅",
      "tel": "886-6-2991111",
      "website": ""
    },
    {
      "id": "C1_397000000A_000010",
      "name": "中都愛河濕地公園",
      "county": "高雄市",
      "area": "三民區",
      "address": "高雄市807三民區同盟三路與十全三路交叉處",
      "lat": 22.64655,
      "lng": 120.28653,
      "open_time": "全天候開放",
      "tel": "886-7-7995678",
      "website": ""
    },
    {
      "id": "C1_376530000A_000001",
      "name": "屏東縣排灣族雕刻館",
      "county": "屏東縣",
      "area": "屏東市",
      "address": "屏東縣900屏東市大連路69號",
      "lat": 22.678983,
      "lng": 120.499283,
      "open_time": "每日09:00～18:00，每週一、每月最後一週四與國定假日休館",
      "tel": "886-8-7360330",
      "website": ""
    },
    {
      "id": "C1_376420000A_000001",
      "name": "蘇澳冷泉公園",
      "county": "宜蘭縣",
      "area": "蘇澳鎮",
      "address": "宜蘭縣270蘇澳鎮冷泉路6-4號",
      "lat": 24.59655,
      "lng": 121.85116,
      "open_time": "9：00- 17：00",
      "tel": "886-3-9312152",
      "website": ""
    },
    {
      "id": "C1_376540000A_000427",
      "name": "石門長濱自行車道",
      "county": "花蓮縣",
      "area": "豐濱鄉",
      "address": "臺東縣962長濱鄉台11線",
      "lat": 23.52057,
      "lng": 121.50235,
      "open_time": "全天候開放",
      "tel": "886-3-9962501",
      "website": ""
    },
    {
      "id": "C1_376530000A_000200",
      "name": "壽峠林道",
      "county": "臺東縣",
      "area": "達仁鄉",
      "address": "屏東縣943獅子鄉",
      "lat": 22.2456,
      "lng": 120.8356,
      "open_time": "全天開放",
      "tel": "886-8-8830463",
      "website": ""
    },
    {
      "id": "C1_376560000A_000001",
      "name": "貝殼教堂",
      "county": "澎湖縣",
      "area": "湖西鄉",
      "address": "澎湖縣湖西鄉林投村",
      "lat": 23.56141,
      "lng": 119.64193,
      "open_time": "Sun 24 hours；Mon 24 hours；Tue 24 hours；Wed 24 hours；Thu 24 hours；Fri 24 hours；Sat 24 hours",
      "tel": "886-6-9216521",
      "website": ""
    },
    {
      "id": "C1_371020000A_000376",
      "name": "邱良功古厝",
      "county": "金門縣",
      "area": "金城鎮",
      "address": "金門縣893金城鎮浯江街27號",
      "lat": 24.43263,
      "lng": 118.31778,
      "open_time": "全天",
      "tel": "886-8-2328638",
      "website": ""
    },
    {
      "id": "C1_371030000A_000007",
      "name": "山海一家",
      "county": "連江縣",
      "area": "莒光鄉",
      "address": "連江縣莒光鄉青帆村74之2號(莒光鄉公所)",
      "lat": 25.97227,
      "lng": 119.93147,
      "open_time": "全日開放",
      "tel": "886-886-836-89146",
      "website": ""
    },
    {
      "id": "C1_379000000A_000129",
      "name": "基隆廟口",
      "county": "基隆市",
      "area": "仁愛區",
      "address": "",
      "lat": 25.12825,
      "lng": 121.74352,
      "open_time": "以照各店家營業時間為主",
      "tel": "886-2-24287664",
      "website": "https://www.taiwan.net.tw/m1.aspx?sNo=0001016&id=298"
    },
    {
      "id": "C1_376430000A_001274",
      "name": "大棟山系登山步道",
      "county": "新北市",
      "area": "樹林區",
      "address": "桃園市333龜山區兔坑里",
      "lat": 24.99835,
      "lng": 121.40056,
      "open_time": "全年無休",
      "tel": "886-3-3322101",
      "website": ""
    },
    {
      "id": "C1_379000000A_000002",
      "name": "關渡碼頭",
      "county": "臺北市",
      "area": "北投區",
      "address": "",
      "lat": 25.12087,
      "lng": 121.46198,
      "open_time": "開放空間",
      "tel": "886-2-27208889",
      "website": ""
    },
    {
      "id": "C1_313020000G_000136",
      "name": "臺灣菸酒(股)公司林口觀光酒廠",
      "county": "桃園市",
      "area": "龜山區",
      "address": "桃園縣龜山鄉文化一路55號",
      "lat": 25.056168,
      "lng": 121.375231,
      "open_time": "",
      "tel": "886-3-3283001#430",
      "website": ""
    },
    {
      "id": "C1_376580000A_000002",
      "name": "新竹驛(新竹火車站)",
      "county": "新竹市",
      "area": "東區",
      "address": "新竹市中華路二段445號",
      "lat": 24.801943,
      "lng": 120.971677,
      "open_time": "全日開放",
      "tel": "886-3-5237441",
      "website": ""
    },
    {
      "id": "C1_376440000A_000045",
      "name": "橫山采風館",
      "county": "新竹縣",
      "area": "橫山鄉",
      "address": "新竹縣橫山鄉內灣村9鄰大同路99號",
      "lat": 24.7052,
      "lng": 121.179,
      "open_time": "未提供",
      "tel": "886-3-5518101",
      "website": null
    },
    {
      "id": "C1_376450000A_000019",
      "name": "中港慈裕宮",
      "county": "苗栗縣",
      "area": "竹南鎮",
      "address": "苗栗縣竹南鎮中美里民生路7號",
      "lat": 24.68249,
      "lng": 120.86374,
      "open_time": "每日開放",
      "tel": "886-37-462353",
      "website": ""
    },
    {
      "id": "C1_387000000A_000001",
      "name": "Top City臺中大遠百",
      "county": "臺中市",
      "area": "西屯區",
      "address": "臺中市407西屯區臺灣大道三段251號",
      "lat": 24.16447,
      "lng": 120.6446,
      "open_time": "週一至週五 11:00~22:00，週六、日 10:30~22:00，例假日 10:30~22:00",
      "tel": "886-4-37022168",
      "website": ""
    },
    {
      "id": "C1_376470000A_000006",
      "name": "田中森林公園",
      "county": "彰化縣",
      "area": "田中鎮",
      "address": "彰化縣田中鎮中南路二段187號",
      "lat": 23.853062,
      "lng": 120.587733,
      "open_time": "24小時",
      "tel": "886-4-92580525",
      "website": ""
    },
    {
      "id": "C1_376470000A_000460",
      "name": "石頭公三坑步道",
      "county": "南投縣",
      "area": "南投市",
      "address": "彰化縣社頭鄉石頭公三坑",
      "lat": 23.912185,
      "lng": 120.637059,
      "open_time": "全天開放",
      "tel": "886-49-2365226",
      "website": ""
    },
    {
      "id": "C1_376490000A_000002",
      "name": "北港朝天宮",
      "county": "雲林縣",
      "area": "北港鎮",
      "address": "雲林縣北港鎮中山路178號",
      "lat": 23.56809,
      "lng": 120.3048,
      "open_time": "05:00-00:00(特殊情況依廟方時間為主)",
      "tel": "886-5-7832055",
      "website": ""
    },
    {
      "id": "C1_376600000A_000002",
      "name": "丙午震災紀念碑",
      "county": "嘉義市",
      "area": "東區",
      "address": "嘉義市東區嘉義公園內",
      "lat": 23.48392,
      "lng": 120.46498,
      "open_time": "星期日 24 小時營業；星期一 24 小時營業；星期二 24 小時營業；星期三 24 小時營業；星期四 24 小時營業；星期五 24 小時營業；星期六 24 小時營業",
      "tel": "886-5-2294593",
      "website": ""
    },
    {
      "id": "C1_376500000A_000001",
      "name": "臺灣菸酒公司嘉義觀光酒廠",
      "county": "嘉義縣",
      "area": "民雄鄉",
      "address": "嘉義縣民雄鄉福樂村中山路4號",
      "lat": 23.5207,
      "lng": 120.44606,
      "open_time": "8：30-17：00（除夕至初二不開放）",
      "tel": "886-5-2215172",
      "website": ""
    },
    {
      "id": "C1_397000000A_000235",
      "name": "內門308高地",
      "county": "臺南市",
      "area": "左鎮區",
      "address": "高雄市845內門區",
      "lat": 22.97741,
      "lng": 120.44242,
      "open_time": "全天候開放",
      "tel": "886-7-7995678",
      "website": ""
    },
    {
      "id": "C1_397000000A_000011",
      "name": "檨仔林埤濕地公園",
      "county": "高雄市",
      "area": "仁武區",
      "address": "高雄市807三民區鼎金後路461巷",
      "lat": 22.6727,
      "lng": 120.32707,
      "open_time": "全天候開放",
      "tel": "886-7-7995678",
      "website": ""
    },
    {
      "id": "C1_376530000A_000002",
      "name": "中山公園",
      "county": "屏東縣",
      "area": "屏東市",
      "address": "屏東縣900屏東市中心中華路與公園路口",
      "lat": 22.673967,
      "lng": 120.49245,
      "open_time": "全日開放",
      "tel": "886-8-7320415",
      "website": "https://zh.wikipedia.org/zh-tw/%E5%B1%8F%E6%9D%B1%E5%85%AC%E5%9C%92"
    },
    {
      "id": "C1_376420000A_000002",
      "name": "豆腐岬風景區",
      "county": "宜蘭縣",
      "area": "蘇澳鎮",
      "address": "宜蘭縣270蘇澳鎮南方澳漁港東側",
      "lat": 24.58383,
      "lng": 121.87145,
      "open_time": "全天候",
      "tel": "886-3-9251000",
      "website": ""
    },
    {
      "id": "C1_376550000A_000001",
      "name": "遠雄海洋公園",
      "county": "花蓮縣",
      "area": "壽豐鄉",
      "address": "花蓮縣壽豐鄉鹽寮村福德189號",
      "lat": 23.90136,
      "lng": 121.60337,
      "open_time": "平 日-09：30 ~ 17：00暑 假-09：00 ~ 18：30",
      "tel": "886-3-8123199",
      "website": "http://www.farglory-oceanpark.com.tw/index.php?site=1"
    },
    {
      "id": "C1_376540000A_000212",
      "name": "天龍吊橋",
      "county": "臺東縣",
      "area": "海端鄉",
      "address": "臺東縣957海端鄉霧鹿村天龍橋(天龍飯店後方)",
      "lat": 23.1737,
      "lng": 121.0423,
      "open_time": "",
      "tel": "886-8-9931019",
      "website": ""
    },
    {
      "id": "C1_376560000A_000002",
      "name": "南方四島",
      "county": "澎湖縣",
      "area": "望安鄉",
      "address": "澎湖縣望安鄉無",
      "lat": 23.25746,
      "lng": 119.66794,
      "open_time": "Sun 24 hours；Mon 24 hours；Tue 24 hours；Wed 24 hours；Thu 24 hours；Fri 24 hours；Sat 24 hours",
      "tel": "886-6-9274400",
      "website": ""
    },
    {
      "id": "C1_371020000A_000377",
      "name": "陳詩吟洋樓",
      "county": "金門縣",
      "area": "金城鎮",
      "address": "金門縣893金城鎮珠浦東路44號",
      "lat": 24.43153,
      "lng": 118.31773,
      "open_time": "未開放",
      "tel": "886-8-2328638",
      "website": ""
    },
    {
      "id": "C1_371030000A_000009",
      "name": "午沙北海坑道",
      "county": "連江縣",
      "area": "北竿鄉",
      "address": "連江縣北竿鄉(土反)里村47號(旅客遊客服務中心)",
      "lat": 26.21722,
      "lng": 119.98094,
      "open_time": "全日開放",
      "tel": "886-886-836-56534",
      "website": ""
    },
    {
      "id": "C1_379000000A_000130",
      "name": "碧砂漁港",
      "county": "基隆市",
      "area": "中正區",
      "address": "",
      "lat": 25.13266,
      "lng": 121.74534,
      "open_time": "開放式空間，無時間限制",
      "tel": "886-2-24274830",
      "website": ""
    },
    {
      "id": "C1_379000000A_000117",
      "name": "平溪天燈",
      "county": "新北市",
      "area": "平溪區",
      "address": "",
      "lat": 25.02561,
      "lng": 121.73878,
      "open_time": "",
      "tel": "886-2-29603456",
      "website": "http://www.pingshi.com.tw/index.aspx"
    },
    {
      "id": "C1_379000000A_000003",
      "name": "大佳碼頭",
      "county": "臺北市",
      "area": "中山區",
      "address": "",
      "lat": 25.07588,
      "lng": 121.53742,
      "open_time": "開放空間",
      "tel": "886-2-27208889",
      "website": ""
    },
    {
      "id": "C1_376430000A_000011",
      "name": "桃園火車站前商圈",
      "county": "桃園市",
      "area": "桃園區",
      "address": "桃園市330桃園區桃園火車站前中正路延伸至中山路景福宮段的熱鬧商圈",
      "lat": 24.98921,
      "lng": 121.31354,
      "open_time": "全年無休",
      "tel": "886-3-3322101",
      "website": ""
    },
    {
      "id": "C1_376580000A_000003",
      "name": "新竹火車站－站前廣場",
      "county": "新竹市",
      "area": "東區",
      "address": "新竹市中華路二段445號",
      "lat": 24.802119,
      "lng": 120.971301,
      "open_time": "全日開放",
      "tel": "886-3-5237441",
      "website": ""
    },
    {
      "id": "C1_376440000A_000046",
      "name": "萬瑞渡假村",
      "county": "新竹縣",
      "area": "橫山鄉",
      "address": "312新竹縣橫山鄉橫山村23號",
      "lat": 24.7027,
      "lng": 121.135,
      "open_time": "09:00-17:00",
      "tel": "886-3-5934096",
      "website": null
    },
    {
      "id": "C1_376450000A_000020",
      "name": "永和山自行車觀光園道",
      "county": "苗栗縣",
      "area": "三灣鄉",
      "address": "苗栗縣頭份市上興里",
      "lat": 24.66193,
      "lng": 120.92458,
      "open_time": "每日開放",
      "tel": "886-37-663038",
      "website": ""
    },
    {
      "id": "C1_387000000A_000003",
      "name": "柳原教會",
      "county": "臺中市",
      "area": "中區",
      "address": "臺中市400中區興中街119號",
      "lat": 24.14616,
      "lng": 120.68117,
      "open_time": "依活動而定",
      "tel": "886-4-22222749",
      "website": ""
    },
    {
      "id": "C1_376470000A_000007",
      "name": "二水自行車道",
      "county": "彰化縣",
      "area": "二水鄉",
      "address": "彰化縣二水鄉二水觀光自行車道",
      "lat": 23.814388,
      "lng": 120.61744,
      "open_time": "全天開放",
      "tel": "886-4-8790100",
      "website": ""
    },
    {
      "id": "C1_376470000A_000518",
      "name": "百果山自行車道",
      "county": "南投縣",
      "area": "南投市",
      "address": "湖水路與八卦路口(139縣道)",
      "lat": 23.946611,
      "lng": 120.635511,
      "open_time": "全天開放",
      "tel": "886-4-8347171",
      "website": ""
    },
    {
      "id": "C1_376490000A_000003",
      "name": "成龍濕地",
      "county": "雲林縣",
      "area": "口湖鄉",
      "address": "口湖鄉成龍村(成龍社區發展協會)",
      "lat": 23.55491,
      "lng": 120.1642,
      "open_time": "24HR",
      "tel": "886-5-7970213",
      "website": ""
    },
    {
      "id": "C1_376600000A_000003",
      "name": "十二門古砲",
      "county": "嘉義市",
      "area": "東區",
      "address": "嘉義市東區嘉義公園內",
      "lat": 23.48333,
      "lng": 120.46523,
      "open_time": "星期日 24 小時營業；星期一 24 小時營業；星期二 24 小時營業；星期三 24 小時營業；星期四 24 小時營業；星期五 24 小時營業；星期六 24 小時營業",
      "tel": "886-5-2294593",
      "website": ""
    },
    {
      "id": "C1_376500000A_000002",
      "name": "鐵支路公園",
      "county": "嘉義縣",
      "area": "朴子市",
      "address": "嘉義縣朴子市八德路上",
      "lat": 23.46331,
      "lng": 120.24124,
      "open_time": "全天開放",
      "tel": "886-5-3621855",
      "website": ""
    },
    {
      "id": "C1_A15011100H_000049",
      "name": "蘆竹溝觀光漁港",
      "county": "臺南市",
      "area": "北門區",
      "address": "臺南市727北門區三光里三灣寮",
      "lat": 23.23451,
      "lng": 120.0963,
      "open_time": "全年皆可，無時間限制(00:00~24:00)",
      "tel": "886-6-7861000",
      "website": ""
    },
    {
      "id": "C1_397000000A_000016",
      "name": "愛河之心",
      "county": "高雄市",
      "area": "三民區",
      "address": "高雄市807三民區博愛一路和同盟一路、二路",
      "lat": 22.65132,
      "lng": 120.30388,
      "open_time": "全天候開放",
      "tel": "886-7-7995678",
      "website": ""
    },
    {
      "id": "C1_376530000A_000003",
      "name": "媽祖廟(慈鳳宮)",
      "county": "屏東縣",
      "area": "屏東市",
      "address": "屏東縣900屏東市中山路39號（近屏東火車站）",
      "lat": 22.6711,
      "lng": 120.486467,
      "open_time": "全天開放",
      "tel": "886-8-7322967",
      "website": "https://www.323pt.org.tw/"
    },
    {
      "id": "C1_376420000A_000003",
      "name": "武荖坑風景區",
      "county": "宜蘭縣",
      "area": "蘇澳鎮",
      "address": "宜蘭縣270蘇澳鎮武荖坑路75號",
      "lat": 24.61061,
      "lng": 121.81444,
      "open_time": "08:00-22:00",
      "tel": "886-3-9952852",
      "website": ""
    },
    {
      "id": "C1_376550000A_000002",
      "name": "磯崎海濱休憩區",
      "county": "花蓮縣",
      "area": "豐濱鄉",
      "address": "花蓮縣豐濱鄉磯崎村6-1號",
      "lat": 23.70055,
      "lng": 121.54963,
      "open_time": "視天候及海上風浪情形開放，營運廠商詢問電話：03-8711235",
      "tel": "886-3-8711381",
      "website": ""
    },
    {
      "id": "C1_376540000A_000213",
      "name": "天龍古道",
      "county": "臺東縣",
      "area": "海端鄉",
      "address": "臺東縣957海端鄉台20線186k處",
      "lat": 23.17386,
      "lng": 121.04242,
      "open_time": "天龍步道因坍塌路段進行修復工程，暫時封閉中。",
      "tel": "886-8-9931370",
      "website": ""
    },
    {
      "id": "C1_376560000A_000003",
      "name": "花宅聚落(與曾家古厝融合更名為望安花宅，故關閉)",
      "county": "澎湖縣",
      "area": "望安鄉",
      "address": "澎湖縣望安鄉無",
      "lat": 23.37063,
      "lng": 119.49524,
      "open_time": "",
      "tel": "886-6-9274400",
      "website": ""
    },
    {
      "id": "C1_371020000A_000386",
      "name": "朱子祠",
      "county": "金門縣",
      "area": "金城鎮",
      "address": "金門縣893金城鎮珠埔北路36號",
      "lat": 24.43454,
      "lng": 118.31728,
      "open_time": "每日08:00-21:00",
      "tel": "886-8-2328638",
      "website": ""
    },
    {
      "id": "C1_371030000A_000013",
      "name": "四維夫人村",
      "county": "連江縣",
      "area": "南竿鄉",
      "address": "連江縣南竿鄉仁愛村95-1號(旅客遊客服務中心)",
      "lat": 26.15973,
      "lng": 119.9193,
      "open_time": "全日開放",
      "tel": "886-886-836-25630",
      "website": ""
    },
    {
      "id": "C1_A15011000H_000151",
      "name": "情人湖公園",
      "county": "基隆市",
      "area": "安樂區",
      "address": "基隆市安樂區基金一路208巷19號",
      "lat": 25.14939,
      "lng": 121.70832,
      "open_time": "無時間限制",
      "tel": "886-2-24622981",
      "website": "http://www.northguan-nsa.gov.tw/user/Article.aspx?Lang=1&SNo=04005324"
    },
    {
      "id": "C1_379000000A_000249",
      "name": "二子坪",
      "county": "新北市",
      "area": "三芝區",
      "address": "",
      "lat": 25.18609,
      "lng": 121.52524,
      "open_time": "遊客服務中心開放時間：每日9:00～16:30，每個月的最後一個星期一(遇國定假日順延一天)及農曆除夕休館。",
      "tel": "886-2-28626246",
      "website": "https://www.ymsnp.gov.tw/YMSNP_com_tourmap_m.aspx?id=4&aid=13456&sid=13460&n=17916&sms=13461"
    },
    {
      "id": "C1_379000000A_000004",
      "name": "景美溪河濱自行車道",
      "county": "臺北市",
      "area": "文山區",
      "address": "",
      "lat": 24.98135,
      "lng": 121.56629,
      "open_time": "開放空間",
      "tel": "886-2-27258149",
      "website": "https://heo.gov.taipei/cp.aspx?n=A30EAFDA61A1C236"
    },
    {
      "id": "C1_376430000A_000012",
      "name": "桃園忠烈祠暨神社文化園區",
      "county": "桃園市",
      "area": "桃園區",
      "address": "桃園市330桃園區成功路三段200號",
      "lat": 25.00629,
      "lng": 121.32528,
      "open_time": "■桃園忠烈祠: 週二至週日 09:00-17:00■桃園神社文化園區：週二至週日 09:00-18:00",
      "tel": "886-3-3368877",
      "website": ""
    },
    {
      "id": "C1_376580000A_000004",
      "name": "新竹孔廟",
      "county": "新竹市",
      "area": "東區",
      "address": "新竹市公園路、東山路口",
      "lat": 24.800195,
      "lng": 120.978098,
      "open_time": "三~日8:00~17:00，午休12:00~13:00",
      "tel": "886-3-5216121",
      "website": ""
    },
    {
      "id": "C1_376440000A_000047",
      "name": "六福水樂園",
      "county": "新竹縣",
      "area": "關西鎮",
      "address": "新竹縣關西鎮仁安里拱子溝60號",
      "lat": 24.8252,
      "lng": 121.181,
      "open_time": "未提供",
      "tel": "886-3-54756659",
      "website": null
    },
    {
      "id": "C1_376450000A_000025",
      "name": "竹南龍鳳漁港",
      "county": "苗栗縣",
      "area": "竹南鎮",
      "address": "苗栗縣竹南鎮龍鳳里21鄰龍江街369巷15號",
      "lat": 24.69975,
      "lng": 120.85827,
      "open_time": "每日開放",
      "tel": "886-37-464155",
      "website": ""
    },
    {
      "id": "C1_387000000A_000009",
      "name": "白冷圳紀念公園",
      "county": "臺中市",
      "area": "新社區",
      "address": "臺中市426新社區中95線道",
      "lat": 24.16796,
      "lng": 120.82948,
      "open_time": "隨時可參觀",
      "tel": "886-4-22289111",
      "website": ""
    },
    {
      "id": "C1_376470000A_000009",
      "name": "綠色環境學習營地",
      "county": "彰化縣",
      "area": "彰化市",
      "address": "彰化縣彰化市公園路一段409號",
      "lat": 24.077153,
      "lng": 120.557176,
      "open_time": "全天開放",
      "tel": "886-4-7283866",
      "website": ""
    },
    {
      "id": "C1_376480000A_000004",
      "name": "雲龍瀑布",
      "county": "南投縣",
      "area": "信義鄉",
      "address": "南投縣信義鄉八通關古道東埔登山口",
      "lat": 23.55557,
      "lng": 120.95381,
      "open_time": "無限制",
      "tel": "886-49-2791515",
      "website": ""
    },
    {
      "id": "C1_376490000A_000024",
      "name": "偶的家-戲偶文創園區",
      "county": "雲林縣",
      "area": "斗南鎮",
      "address": "雲林縣斗南鎮建國三路506號",
      "lat": 23.66725,
      "lng": 120.4723,
      "open_time": "09:00-18:00一公休",
      "tel": "886-5-5970699",
      "website": ""
    },
    {
      "id": "C1_376600000A_000004",
      "name": "陳澄波畫架",
      "county": "嘉義市",
      "area": "東區",
      "address": "嘉義市東區中山路199號",
      "lat": 23.48406,
      "lng": 120.46356,
      "open_time": "星期日 24 小時營業；星期一 24 小時營業；星期二 24 小時營業；星期三 24 小時營業；星期四 24 小時營業；星期五 24 小時營業；星期六 24 小時營業",
      "tel": "886-5-2294593",
      "website": ""
    },
    {
      "id": "C1_376500000A_000003",
      "name": "配天宮",
      "county": "嘉義縣",
      "area": "朴子市",
      "address": "嘉義縣朴子市開元路118號",
      "lat": 23.46776,
      "lng": 120.2453,
      "open_time": "AM7：00~PM8：00",
      "tel": "886-5-3792954",
      "website": ""
    },
    {
      "id": "C1_A15011100H_000050",
      "name": "馬沙溝海洋休閒運動渡假中心",
      "county": "臺南市",
      "area": "將軍區",
      "address": "臺南市725將軍區平沙里13鄰平沙140號",
      "lat": 23.21748,
      "lng": 120.08395,
      "open_time": "目前休園維護中。",
      "tel": "886-6-7931580",
      "website": ""
    },
    {
      "id": "C1_397000000A_000021",
      "name": "國定古蹟-竹仔門電廠",
      "county": "高雄市",
      "area": "美濃區",
      "address": "高雄市843美濃區獅山里竹門20號",
      "lat": 22.8694,
      "lng": 120.58639,
      "open_time": "平日：08:00–16:30",
      "tel": "886-7-6850579",
      "website": ""
    },
    {
      "id": "C1_376530000A_000004",
      "name": "屏東鄉土藝術館",
      "county": "屏東縣",
      "area": "屏東市",
      "address": "屏東縣900屏東市田寮巷26號(中正國中側門口)",
      "lat": 22.673683,
      "lng": 120.507433,
      "open_time": "每日09:00～12:00、14:00～17:00，週一與國定假日休館",
      "tel": "886-8-7231637",
      "website": ""
    },
    {
      "id": "C1_376420000A_000004",
      "name": "南澳農場",
      "county": "宜蘭縣",
      "area": "蘇澳鎮",
      "address": "宜蘭縣270蘇澳鎮270宜蘭縣蘇澳鎮海岸路92號",
      "lat": 24.44941,
      "lng": 121.78893,
      "open_time": "詳見官網或電話洽詢",
      "tel": "886-3-9981114",
      "website": ""
    },
    {
      "id": "C1_376550000A_000003",
      "name": "牛山海岸水璉濕地",
      "county": "花蓮縣",
      "area": "壽豐鄉",
      "address": "花蓮縣壽豐鄉水璉村牛山39-5號",
      "lat": 23.76344,
      "lng": 121.5694,
      "open_time": "上午9:00到晚上9:00",
      "tel": "886-3-8601400",
      "website": ""
    },
    {
      "id": "C1_376540000A_000214",
      "name": "向陽國家森林遊樂區",
      "county": "臺東縣",
      "area": "海端鄉",
      "address": "臺東縣957海端鄉利稻村向陽7號",
      "lat": 23.24774,
      "lng": 120.98664,
      "open_time": "07:00~16:00（遊樂區休園中不開放，僅嘉明湖國家步道開放，入山需現場登記申請）",
      "tel": "886-8-9324121#708",
      "website": ""
    },
    {
      "id": "C1_376560000A_000004",
      "name": "吉貝嶼",
      "county": "澎湖縣",
      "area": "白沙鄉",
      "address": "澎湖縣白沙鄉吉貝嶼",
      "lat": 23.74472,
      "lng": 119.60835,
      "open_time": "Sun 24 hours；Mon 24 hours；Tue 24 hours；Wed 24 hours；Thu 24 hours；Fri 24 hours；Sat 24 hours",
      "tel": "886-6-9274400",
      "website": ""
    },
    {
      "id": "C1_371020000A_000387",
      "name": "黃偉墓",
      "county": "金門縣",
      "area": "金沙鎮",
      "address": "金門縣890金沙鎮後浦頭烏鴉落田",
      "lat": 24.47626,
      "lng": 118.40916,
      "open_time": "全天",
      "tel": "886-8-2318823",
      "website": ""
    },
    {
      "id": "C1_371030000A_000014",
      "name": "四維村落日步道",
      "county": "連江縣",
      "area": "南竿鄉",
      "address": "連江縣南竿鄉仁愛村95-1號(旅客遊客服務中心)",
      "lat": 26.16182,
      "lng": 119.91816,
      "open_time": "全日開放",
      "tel": "886-886-836-25630",
      "website": ""
    },
    {
      "id": "C1_A15011000H_000152",
      "name": "大武崙砲台",
      "county": "基隆市",
      "area": "安樂區",
      "address": "基隆市安樂區基金一路208巷19號(情人湖上方)",
      "lat": 25.15676,
      "lng": 121.70556,
      "open_time": "隨時開放",
      "tel": "886-2-24287664",
      "website": "http://www.northguan-nsa.gov.tw/user/Article.aspx?Lang=1&SNo=04005325"
    },
    {
      "id": "C1_379000000A_000275",
      "name": "淡水老街",
      "county": "新北市",
      "area": "淡水區",
      "address": "",
      "lat": 25.16937,
      "lng": 121.44351,
      "open_time": "全日開放，依各店家營業時間為主。",
      "tel": "886-2-26267613",
      "website": ""
    },
    {
      "id": "C1_379000000A_000005",
      "name": "關渡_金色水岸_八里左岸自行車道",
      "county": "臺北市",
      "area": "北投區",
      "address": "",
      "lat": 25.11382,
      "lng": 121.48003,
      "open_time": "開放空間",
      "tel": "886-2-27258149",
      "website": ""
    },
    {
      "id": "C1_376430000A_000013",
      "name": "景福宮",
      "county": "桃園市",
      "area": "桃園區",
      "address": "桃園市330桃園區中正路208號",
      "lat": 24.99468,
      "lng": 121.31102,
      "open_time": "06:00-21:00",
      "tel": "886-3-3337552",
      "website": ""
    },
    {
      "id": "C1_376580000A_000005",
      "name": "新竹護城河親水公園",
      "county": "新竹市",
      "area": "東區",
      "address": "新竹市區林森路經東門城至世界街口",
      "lat": 24.804195,
      "lng": 120.970234,
      "open_time": "全日開放",
      "tel": "886-3-5216121",
      "website": ""
    },
    {
      "id": "C1_376440000A_000048",
      "name": "思微藏物生活空間",
      "county": "新竹縣",
      "area": "竹北市",
      "address": "新竹縣竹北市文興路一段123號之6號302",
      "lat": 24.8118,
      "lng": 121.026,
      "open_time": "14:00-18:00（週一休息）",
      "tel": "886-3-5111408",
      "website": null
    },
    {
      "id": "C1_376450000A_000030",
      "name": "勝興車站",
      "county": "苗栗縣",
      "area": "三義鄉",
      "address": "苗栗縣三義鄉勝興村14鄰勝興88號",
      "lat": 24.38823,
      "lng": 120.78205,
      "open_time": "每日開放",
      "tel": "886-37-878599",
      "website": ""
    },
    {
      "id": "C1_387000000A_000010",
      "name": "梧棲觀光漁港",
      "county": "臺中市",
      "area": "清水區",
      "address": "臺中市436清水區海濱里北堤路30號",
      "lat": 24.29303,
      "lng": 120.52077,
      "open_time": "每周一至五 10:00-19:00；每周例假日 09:00-20:00；全年無休",
      "tel": "886-4-26571586",
      "website": ""
    },
    {
      "id": "C1_376470000A_000010",
      "name": "孔子廟",
      "county": "彰化縣",
      "area": "彰化市",
      "address": "彰化縣彰化市孔門路30號",
      "lat": 24.078481,
      "lng": 120.543531,
      "open_time": "08:30~17:00( 週二 ~ 週日 )",
      "tel": "886-4-7236746",
      "website": ""
    },
    {
      "id": "C1_376480000A_000012",
      "name": "前山第一城石碣",
      "county": "南投縣",
      "area": "竹山鎮",
      "address": "南投縣竹山鎮前山路一段278號 (前300公尺)",
      "lat": 23.76221,
      "lng": 120.67115,
      "open_time": "無限制",
      "tel": "886-49-2643406",
      "website": ""
    },
    {
      "id": "C1_376490000A_000025",
      "name": "太平老街",
      "county": "雲林縣",
      "area": "斗六市",
      "address": "雲林縣斗六市太平路",
      "lat": 23.70853,
      "lng": 120.5418,
      "open_time": "24HR",
      "tel": "886-5-5332000",
      "website": ""
    },
    {
      "id": "C1_376600000A_000005",
      "name": "牆之道",
      "county": "嘉義市",
      "area": "東區",
      "address": "嘉義市東區嘉義公園內",
      "lat": 23.48059,
      "lng": 120.46721,
      "open_time": "星期日 24 小時營業；星期一 24 小時營業；星期二 24 小時營業；星期三 24 小時營業；星期四 24 小時營業；星期五 24 小時營業；星期六 24 小時營業",
      "tel": "886-5-2294593",
      "website": ""
    },
    {
      "id": "C1_376500000A_000004",
      "name": "梅嶺美術館",
      "county": "嘉義縣",
      "area": "朴子市",
      "address": "嘉義縣朴子市山通路2-9號",
      "lat": 23.46694,
      "lng": 120.2533,
      "open_time": "早上9：00~12：00 下午1：30~5：00",
      "tel": "886-5-3795667",
      "website": ""
    },
    {
      "id": "C1_A15011100H_000051",
      "name": "將軍觀光漁港",
      "county": "臺南市",
      "area": "將軍區",
      "address": "臺南市725將軍區平沙里156號、157號",
      "lat": 23.21161,
      "lng": 120.08834,
      "open_time": "全年皆可，無時間限制(00:00~24:00)漁獲拍賣時間：夏天14:00冬天13:30開始至漁貨賣完",
      "tel": "886-6-7930460",
      "website": ""
    },
    {
      "id": "C1_397000000A_000026",
      "name": "佛光山",
      "county": "高雄市",
      "area": "大樹區",
      "address": "高雄市840大樹區興田里興田路153號",
      "lat": 22.7474,
      "lng": 120.44612,
      "open_time": "08:30–17:30",
      "tel": "886-7-6561921",
      "website": ""
    },
    {
      "id": "C1_376530000A_000005",
      "name": "宗聖公祠",
      "county": "屏東縣",
      "area": "屏東市",
      "address": "屏東縣900屏東市勝豐里自由路謙仁巷23號",
      "lat": 22.666933,
      "lng": 120.491533,
      "open_time": "整修中",
      "tel": "886-8-7365012",
      "website": ""
    },
    {
      "id": "C1_376420000A_000005",
      "name": "南方澳南天宮(金媽祖、玉媽祖)",
      "county": "宜蘭縣",
      "area": "蘇澳鎮",
      "address": "宜蘭縣270蘇澳鎮江夏路17號",
      "lat": 24.58188,
      "lng": 121.86499,
      "open_time": "04:30-21:00",
      "tel": "886-3-9962726",
      "website": ""
    },
    {
      "id": "C1_376550000A_000004",
      "name": "蕃薯寮",
      "county": "花蓮縣",
      "area": "壽豐鄉",
      "address": "花蓮縣壽豐鄉水璉村芳寮坑十八號橋旁",
      "lat": 23.74683,
      "lng": 121.55528,
      "open_time": "全日",
      "tel": "886-3-8671326",
      "website": "http://www.eastcoast-nsa.gov.tw/"
    },
    {
      "id": "C1_376540000A_000217",
      "name": "埡口",
      "county": "臺東縣",
      "area": "海端鄉",
      "address": "臺東縣957海端鄉大關山隧道1號",
      "lat": 23.26407,
      "lng": 120.96134,
      "open_time": "",
      "tel": "886-8-9931370",
      "website": ""
    },
    {
      "id": "C1_376560000A_000005",
      "name": "外垵",
      "county": "澎湖縣",
      "area": "西嶼鄉",
      "address": "澎湖縣西嶼鄉外垵",
      "lat": 23.56864,
      "lng": 119.48462,
      "open_time": "Sun 24 hours；Mon 24 hours；Tue 24 hours；Wed 24 hours；Thu 24 hours；Fri 24 hours；Sat 24 hours",
      "tel": "886-6-9274400",
      "website": ""
    },
    {
      "id": "C1_371020000A_000388",
      "name": "黃宣顯六路大厝",
      "county": "金門縣",
      "area": "金沙鎮",
      "address": "金門縣890金沙鎮汶沙里后浦頭3號",
      "lat": 24.48706,
      "lng": 118.41471,
      "open_time": "全天",
      "tel": "886-8-2325643",
      "website": ""
    },
    {
      "id": "C1_371030000A_000016",
      "name": "白馬尊王廟",
      "county": "連江縣",
      "area": "南竿鄉",
      "address": "連江縣南竿鄉仁愛村95-1號(旅客遊客服務中心)",
      "lat": 26.15419,
      "lng": 119.93778,
      "open_time": "全日開放",
      "tel": "886-886-836-25630",
      "website": ""
    },
    {
      "id": "C1_A15011000H_000153",
      "name": "外木山湖海灣",
      "county": "基隆市",
      "area": "基隆市",
      "address": "基隆市中山區湖海路一、二段(協和街)",
      "lat": 25.17246,
      "lng": 121.70891,
      "open_time": "無時間限制",
      "tel": "886-2-24287664",
      "website": "http://www.northguan-nsa.gov.tw/user/Article.aspx?Lang=1&SNo=04005326"
    },
    {
      "id": "C1_379000000A_000279",
      "name": "八里渡船頭老街",
      "county": "新北市",
      "area": "八里區",
      "address": "",
      "lat": 25.15844,
      "lng": 121.43471,
      "open_time": "全日開放，依各店家營業時間為主。",
      "tel": "886-2-26102621",
      "website": ""
    },
    {
      "id": "C1_379000000A_000006",
      "name": "社子島環島與二重疏洪道自行車道",
      "county": "臺北市",
      "area": "士林區",
      "address": "",
      "lat": 25.10985,
      "lng": 121.46606,
      "open_time": "開放空間",
      "tel": "886-2-27258149",
      "website": "https://heo.gov.taipei/cp.aspx?n=1F4BB3A41B266BB7"
    },
    {
      "id": "C1_376430000A_000014",
      "name": "奧爾森林學堂",
      "county": "桃園市",
      "area": "桃園區",
      "address": "桃園市330桃園區公園路42號",
      "lat": 25.00185,
      "lng": 121.32756,
      "open_time": "24小時",
      "tel": "886-3-3946061",
      "website": ""
    },
    {
      "id": "C1_376580000A_000006",
      "name": "竹塹城迎曦門(東門城迎曦門)",
      "county": "新竹市",
      "area": "東區",
      "address": "新竹市北區中山里中正路75號",
      "lat": 24.80431,
      "lng": 120.970201,
      "open_time": "全日開放",
      "tel": "886-3-5319756",
      "website": ""
    },
    {
      "id": "C1_376440000A_000050",
      "name": "Hi Look 平面設計工作室",
      "county": "新竹縣",
      "area": "關西鎮",
      "address": "新竹縣關西鎮中正路 56 號",
      "lat": 24.7889,
      "lng": 121.176,
      "open_time": "未提供",
      "tel": "886-3-5518101",
      "website": null
    },
    {
      "id": "C1_376450000A_000032",
      "name": "三義木雕博物館",
      "county": "苗栗縣",
      "area": "三義鄉",
      "address": "苗栗縣三義鄉廣盛村廣聲新城88號",
      "lat": 24.40592,
      "lng": 120.76118,
      "open_time": "週二~週日 09:00-17:00（下午04:30後停止售票及入館）",
      "tel": "886-37-876009",
      "website": "https://wood.mlc.gov.tw/"
    },
    {
      "id": "C1_387000000A_000013",
      "name": "八二三紀念公園",
      "county": "臺中市",
      "area": "北屯區",
      "address": "臺中市406北屯區昌平東五路",
      "lat": 24.18755,
      "lng": 120.68925,
      "open_time": "詳見官網或電話洽詢",
      "tel": "886-4-22289111",
      "website": ""
    },
    {
      "id": "C1_376470000A_000011",
      "name": "道東書院",
      "county": "彰化縣",
      "area": "和美鎮",
      "address": "彰化縣和美鎮和卿路101號",
      "lat": 24.111311,
      "lng": 120.493924,
      "open_time": "08:00–17:00(周一公休)",
      "tel": "886-4-7560620",
      "website": ""
    },
    {
      "id": "C1_376480000A_000014",
      "name": "林圮墓",
      "county": "南投縣",
      "area": "竹山鎮",
      "address": "南投縣竹山鎮林圮街，育英路33號旁",
      "lat": 23.75624,
      "lng": 120.67964,
      "open_time": "＊",
      "tel": "886-49-2222724",
      "website": ""
    },
    {
      "id": "C1_376490000A_000027",
      "name": "行啟記念館",
      "county": "雲林縣",
      "area": "斗六市",
      "address": "雲林縣斗六市府前街101號",
      "lat": 23.70611,
      "lng": 120.5419,
      "open_time": "13:00-21:00六日09:00-21:00一二公休",
      "tel": "886-5-5339479",
      "website": ""
    },
    {
      "id": "C1_376600000A_000006",
      "name": "一江山紀念碑",
      "county": "嘉義市",
      "area": "東區",
      "address": "嘉義市東區嘉義公園內",
      "lat": 23.48341,
      "lng": 120.46398,
      "open_time": "星期日 24 小時營業；星期一 24 小時營業；星期二 24 小時營業；星期三 24 小時營業；星期四 24 小時營業；星期五 24 小時營業；星期六 24 小時營業",
      "tel": "886-5-2294593",
      "website": ""
    },
    {
      "id": "C1_376500000A_000005",
      "name": "中寮安溪城隍廟",
      "county": "嘉義縣",
      "area": "鹿草鄉",
      "address": "嘉義縣鹿草鄉重寮村96號",
      "lat": 23.39755,
      "lng": 120.3154,
      "open_time": "AM5:00~PM11:00",
      "tel": "886-5-3752005",
      "website": ""
    },
    {
      "id": "C1_A15011100H_000053",
      "name": "觀海樓",
      "county": "臺南市",
      "area": "七股區",
      "address": "臺南市724七股區潟湖(鹽埕海巡安檢所旁)",
      "lat": 23.14487,
      "lng": 120.07717,
      "open_time": "全年皆可，無時間限制(00:00~24:00)",
      "tel": "886-6-2842600",
      "website": ""
    },
    {
      "id": "C1_397000000A_000028",
      "name": "臺灣天壇",
      "county": "高雄市",
      "area": "大樹區",
      "address": "高雄市840大樹區統嶺里7鄰統嶺路88號",
      "lat": 22.77197,
      "lng": 120.44693,
      "open_time": "09:00–17:00",
      "tel": "886-7-6565176",
      "website": ""
    },
    {
      "id": "C1_376530000A_000006",
      "name": "高屏舊鐵橋",
      "county": "屏東縣",
      "area": "屏東市",
      "address": "屏東縣900屏東市九曲路",
      "lat": 22.6608,
      "lng": 120.44595,
      "open_time": "全天開放",
      "tel": "886-7-3118640",
      "website": "https://www.travelking.com.tw/tourguide/scenery1161.html"
    },
    {
      "id": "C1_376420000A_000006",
      "name": "南方澳進安宮(寶石珊瑚媽祖)",
      "county": "宜蘭縣",
      "area": "蘇澳鎮",
      "address": "宜蘭縣270蘇澳鎮江夏路81號",
      "lat": 24.5842,
      "lng": 121.86452,
      "open_time": "06:00-20:00",
      "tel": "886-3-9971239",
      "website": ""
    },
    {
      "id": "C1_376550000A_000005",
      "name": "和南寺",
      "county": "花蓮縣",
      "area": "壽豐鄉",
      "address": "花蓮縣壽豐鄉鹽寮村191號",
      "lat": 23.87652,
      "lng": 121.59874,
      "open_time": "07:00～19:00",
      "tel": "886-3-8671001",
      "website": ""
    },
    {
      "id": "C1_376540000A_000219",
      "name": "霧鹿古砲台",
      "county": "臺東縣",
      "area": "海端鄉",
      "address": "臺東縣957海端鄉霧鹿村聯絡道路957號",
      "lat": 23.16999,
      "lng": 121.04058,
      "open_time": "全天候開放",
      "tel": "886-8-9935053",
      "website": ""
    },
    {
      "id": "C1_376560000A_000006",
      "name": "竹灣紫菜礁",
      "county": "澎湖縣",
      "area": "西嶼鄉",
      "address": "澎湖縣西嶼鄉竹灣村西北方的海岸",
      "lat": 23.6481,
      "lng": 119.51267,
      "open_time": "Sun 24 hours；Mon 24 hours；Tue 24 hours；Wed 24 hours；Thu 24 hours；Fri 24 hours；Sat 24 hours",
      "tel": "886-6-9274400",
      "website": ""
    },
    {
      "id": "C1_371020000A_000389",
      "name": "莒光樓",
      "county": "金門縣",
      "area": "金城鎮",
      "address": "金門縣893金城鎮賢城路1號",
      "lat": 24.42497,
      "lng": 118.319,
      "open_time": "每日08:00-22:00",
      "tel": "886-8-2325632",
      "website": ""
    },
    {
      "id": "C1_371030000A_000017",
      "name": "后澳閩東閒情",
      "county": "連江縣",
      "area": "北竿鄉",
      "address": "連江縣北竿鄉(土反)里村47號(旅客遊客服務中心)",
      "lat": 26.22303,
      "lng": 120.00696,
      "open_time": "全日開放",
      "tel": "886-886-836-56534",
      "website": ""
    },
    {
      "id": "C1_A15011000H_000154",
      "name": "基隆廟口夜市",
      "county": "基隆市",
      "area": "仁愛區",
      "address": "基隆市仁愛區仁三路",
      "lat": 25.12845,
      "lng": 121.74316,
      "open_time": "無時間限制",
      "tel": "886-2-24287664",
      "website": "http://www.northguan-nsa.gov.tw/user/Article.aspx?Lang=1&SNo=04005327"
    },
    {
      "id": "C1_379000000A_000283",
      "name": "烏來瀑布",
      "county": "新北市",
      "area": "烏來區",
      "address": "",
      "lat": 24.84745,
      "lng": 121.55195,
      "open_time": "纜車資訊：上午8：30開始每隔10~15分鐘對開一班下"
    }
    ]
}